[
    {
        "title": "新型コロナ 北海道内で３５０９人感染確認 ３０人死亡",
        "link": "https://www3.nhk.or.jp/lnews/sapporo/20221128/7000052884.html",
        "lat": "43.07264808246195",
        "lon": "141.35016278347865",
        "area": "北海道"
    },
    {
        "title": "野生動物による農作物被害 昨年度は５４億円余 道まとめ",
        "link": "https://www3.nhk.or.jp/lnews/sapporo/20221128/7000052866.html",
        "lat": "43.072150064984704",
        "lon": "141.35244444651522",
        "area": "北海道"
    },
    {
        "title": "サッカーＷ杯コスタリカ戦 札幌から声援も",
        "link": "https://www3.nhk.or.jp/lnews/sapporo/20221128/7000052863.html",
        "lat": "43.061972",
        "lon": "141.354374",
        "area": "札幌市"
    },
    {
        "title": "アクティビティなど 釧路市のＰＲ動画 １００万回以上再生",
        "link": "https://www3.nhk.or.jp/lnews/sapporo/20221128/7000052867.html",
        "lat": "42.996124",
        "lon": "144.466081",
        "area": "釧路町"
    },
    {
        "title": "奈井江町長選挙 現職の三本英司氏が２回目の当選",
        "link": "https://www3.nhk.or.jp/lnews/sapporo/20221127/7000052862.html",
        "lat": "43.425353",
        "lon": "141.882816",
        "area": "奈井江町"
    },
    {
        "title": "斜里町の野鳥死骸が鳥インフルエンザ陽性反応 高病原性検査へ",
        "link": "https://www3.nhk.or.jp/lnews/sapporo/20221128/7000052869.html",
        "lat": "43.911441",
        "lon": "144.670713",
        "area": "斜里町"
    },
    {
        "title": "冬の食卓彩るセリの収穫本格化 美深町のハウスで水耕栽培",
        "link": "https://www3.nhk.or.jp/lnews/sapporo/20221128/7000052868.html",
        "lat": "44.480994",
        "lon": "142.342963",
        "area": "美深町"
    },
    {
        "title": "Ｗ杯の日本代表「柴崎先輩」応援 卒業した野辺地小学校",
        "link": "https://www3.nhk.or.jp/lnews/aomori/20221128/6080018075.html",
        "lat": "40.864447",
        "lon": "141.128685",
        "area": "野辺地町"
    },
    {
        "title": "上北自動車道が全線開通 青森ー八戸間の所要時間短縮へ",
        "link": "https://www3.nhk.or.jp/lnews/aomori/20221128/6080018072.html",
        "lat": "40.512278",
        "lon": "141.488404",
        "area": "八戸市"
    },
    {
        "title": "津軽のトランプ「ゴニンカン」五所川原市で愛好団体が大会",
        "link": "https://www3.nhk.or.jp/lnews/aomori/20221128/6080018073.html",
        "lat": "40.807835",
        "lon": "140.446118",
        "area": "五所川原市"
    },
    {
        "title": "青森市営バス 利用者が運行情報確認できるシステム導入へ",
        "link": "https://www3.nhk.or.jp/lnews/aomori/20221128/6080018070.html",
        "lat": "40.8268580201307",
        "lon": "140.7557697445621",
        "area": "青森市"
    },
    {
        "title": "自民党県連の新会長に津島淳衆議院議員が就任",
        "link": "https://www3.nhk.or.jp/lnews/aomori/20221128/6080018074.html",
        "lat": "40.82595734187924",
        "lon": "140.74800944114037",
        "area": "青森市"
    },
    {
        "title": "青森県や岩手県で震度２（１６：２５）",
        "link": "https://www3.nhk.or.jp/lnews/aomori/20221128/6080018076.html",
        "lat": "40.82415011447262",
        "lon": "140.74732441883464",
        "area": "青森市"
    },
    {
        "title": "県内１人死亡 ９８５人感染 増加傾向 病床使用率５０％超",
        "link": "https://www3.nhk.or.jp/lnews/aomori/20221127/6080018069.html",
        "lat": "40.828101755321654",
        "lon": "140.7511524941138",
        "area": "青森市"
    },
    {
        "title": "宮城 新型コロナ新規感染者１週間で２万人超 ８月以来",
        "link": "https://www3.nhk.or.jp/lnews/sendai/20221128/6000021719.html",
        "lat": "38.2744025897433",
        "lon": "140.8775753570576",
        "area": "宮城県"
    },
    {
        "title": "女川原発運転差し止め訴訟が結審 来年５月に判決",
        "link": "https://www3.nhk.or.jp/lnews/sendai/20221128/6000021718.html",
        "lat": "38.445388",
        "lon": "141.442693",
        "area": "女川町"
    },
    {
        "title": "本格的な寒さ前に 冬用タイヤの交換混雑",
        "link": "https://www3.nhk.or.jp/lnews/sendai/20221128/6000021715.html",
        "lat": "38.268008",
        "lon": "140.869617",
        "area": "仙台市"
    },
    {
        "title": "義足の聖火ランナーが児童と交流　”支え合う大切さ”",
        "link": "https://www3.nhk.or.jp/lnews/sendai/20221128/6000021716.html",
        "lat": "38.268008",
        "lon": "140.869617",
        "area": "仙台市"
    },
    {
        "title": "丸森町特産「ころ柿」づくりが最盛期",
        "link": "https://www3.nhk.or.jp/lnews/sendai/20221128/6000021717.html",
        "lat": "37.911536",
        "lon": "140.765365",
        "area": "丸森町"
    },
    {
        "title": "コスタリカ戦 仙台でもパブリックビューイング",
        "link": "https://www3.nhk.or.jp/lnews/sendai/20221128/6000021714.html",
        "lat": "38.268008",
        "lon": "140.869617",
        "area": "仙台市"
    },
    {
        "title": "大崎市古川で住宅が全焼 １人遺体で見つかる",
        "link": "https://www3.nhk.or.jp/lnews/sendai/20221127/6000021713.html",
        "lat": "38.577132",
        "lon": "140.955565",
        "area": "大崎市"
    },
    {
        "title": "県職員がパワハラの遺書残し自殺 地域振興局部長を懲戒処分",
        "link": "https://www3.nhk.or.jp/lnews/akita/20221128/6010016076.html",
        "lat": "39.72953064795234",
        "lon": "140.10803325629033",
        "area": "秋田市"
    },
    {
        "title": "１２月県議会が開会 物価対策などの補正予算案を提案",
        "link": "https://www3.nhk.or.jp/lnews/akita/20221128/6010016074.html",
        "lat": "39.72248631547578",
        "lon": "140.10454595623239",
        "area": "秋田市"
    },
    {
        "title": "秋田市の定例議会が開会 物価対策などの補正予算案提案",
        "link": "https://www3.nhk.or.jp/lnews/akita/20221128/6010016075.html",
        "lat": "39.7223958427003",
        "lon": "140.10253486878605",
        "area": "秋田市"
    },
    {
        "title": "小坂町のヌーヴォーワイン発表 第三セクターの醸造所が仕込む",
        "link": "https://www3.nhk.or.jp/lnews/akita/20221128/6010016077.html",
        "lat": "40.332926",
        "lon": "140.736191",
        "area": "小坂町"
    },
    {
        "title": "専門校生が秋田を彩ったオブジェ制作 県庁第二庁舎に展示",
        "link": "https://www3.nhk.or.jp/lnews/akita/20221128/6010016078.html",
        "lat": "39.45309",
        "lon": "140.475448",
        "area": "大仙市"
    },
    {
        "title": "秋田県 新型コロナ感染者 約３９０人の見通し（２８日）",
        "link": "https://www3.nhk.or.jp/lnews/akita/20221128/6010016073.html",
        "lat": "39.72196833714851",
        "lon": "140.10573202996457",
        "area": "秋田市"
    },
    {
        "title": "同時流行で医療ひっ迫の場合 日曜・祝日診療に県が協力金支給",
        "link": "https://www3.nhk.or.jp/lnews/akita/20221128/6010016070.html",
        "lat": "39.724528399168534",
        "lon": "140.11077657897337",
        "area": "秋田市"
    },
    {
        "title": "Ｗ杯コスタリカ戦 米沢市の公開合同観戦で選手にエール",
        "link": "https://www3.nhk.or.jp/lnews/yamagata/20221128/6020015835.html",
        "lat": "37.921869",
        "lon": "140.11614",
        "area": "米沢市"
    },
    {
        "title": "山形県 新型コロナ新たに５５４人感染１人死亡(２８日）",
        "link": "https://www3.nhk.or.jp/lnews/yamagata/20221128/6020015838.html",
        "lat": "38.255750173160436",
        "lon": "140.3493640422482",
        "area": "山形市"
    },
    {
        "title": "弾道ミサイル発射想定 ２９日寒河江市で大規模避難訓練",
        "link": "https://www3.nhk.or.jp/lnews/yamagata/20221128/6020015832.html",
        "lat": "38.380954",
        "lon": "140.276068",
        "area": "寒河江市"
    },
    {
        "title": "たくあん漬けを作ったとされる沢庵和尚 上山市で供養祭",
        "link": "https://www3.nhk.or.jp/lnews/yamagata/20221127/6020015830.html",
        "lat": "38.149562",
        "lon": "140.26783",
        "area": "上山市"
    },
    {
        "title": "金山町の小学校で「雅楽」を披露 日本の伝統芸能に触れる",
        "link": "https://www3.nhk.or.jp/lnews/yamagata/20221128/6020015839.html",
        "lat": "38.88344",
        "lon": "140.339367",
        "area": "金山町"
    },
    {
        "title": "３年ぶり開催「子ども伝承祭」真室川町で伝統芸能を披露",
        "link": "https://www3.nhk.or.jp/lnews/yamagata/20221128/6020015837.html",
        "lat": "38.85692",
        "lon": "140.251633",
        "area": "真室川町"
    },
    {
        "title": "モンテディオ山形の山田康太選手 柏レイソルに移籍",
        "link": "https://www3.nhk.or.jp/lnews/yamagata/20221128/6020015836.html",
        "lat": "38.26469439735557",
        "lon": "140.34185522514417",
        "area": "山形市"
    },
    {
        "title": "県内のスキー場 電気代の値上げで３分の１がリフト券値上げ",
        "link": "https://www3.nhk.or.jp/lnews/fukushima/20221128/6050020957.html",
        "lat": "37.76460008831256",
        "lon": "140.48452380546462",
        "area": "福島市"
    },
    {
        "title": "福島県 新型コロナ新たに１００５人感染確認(２８日）",
        "link": "https://www3.nhk.or.jp/lnews/fukushima/20221128/6050020954.html",
        "lat": "37.76348749776856",
        "lon": "140.47588074436499",
        "area": "福島市"
    },
    {
        "title": "本宮市の市長と副市長が新型コロナに感染 症状はなし",
        "link": "https://www3.nhk.or.jp/lnews/fukushima/20221128/6050020956.html",
        "lat": "37.513162",
        "lon": "140.393877",
        "area": "本宮市"
    },
    {
        "title": "サッカーＷ杯の関連商品 福島のスポーツ店で売り上げ好調",
        "link": "https://www3.nhk.or.jp/lnews/fukushima/20221128/6050020955.html",
        "lat": "37.76215290263006",
        "lon": "140.48120878680348",
        "area": "福島市"
    },
    {
        "title": "サッカーＪ３ いわきＦＣがリーグ優勝の報告会",
        "link": "https://www3.nhk.or.jp/lnews/fukushima/20221128/6050020953.html",
        "lat": "37.050456",
        "lon": "140.887687",
        "area": "いわき市"
    },
    {
        "title": "震災と原発事故語り継ぐ県内の語り部の団体が連携組織結成",
        "link": "https://www3.nhk.or.jp/lnews/fukushima/20221128/6050020950.html",
        "lat": "37.765071659369966",
        "lon": "140.47797160296813",
        "area": "福島市"
    },
    {
        "title": "県内４人死亡 ２３０４人感染 病床使用率５日連続５０％超",
        "link": "https://www3.nhk.or.jp/lnews/fukushima/20221127/6050020949.html",
        "lat": "37.76348904679742",
        "lon": "140.4765469058513",
        "area": "福島市"
    },
    {
        "title": "茨城県 新型コロナに新たに２１４９人感染 ６人死亡",
        "link": "https://www3.nhk.or.jp/lnews/mito/20221128/1070019295.html",
        "lat": "36.29517988832661",
        "lon": "140.4316730944531",
        "area": "茨城町"
    },
    {
        "title": "先週のコロナ感染者 ５週連続で前週上回る（２１日〜２７日）",
        "link": "https://www3.nhk.or.jp/lnews/mito/20221128/1070019293.html",
        "lat": "36.29557884700825",
        "lon": "140.42574659338814",
        "area": "茨城町"
    },
    {
        "title": "大道芸人たちが自慢のパフォーマンスを披露 日立",
        "link": "https://www3.nhk.or.jp/lnews/mito/20221128/1070019294.html",
        "lat": "36.599016",
        "lon": "140.651546",
        "area": "日立市"
    },
    {
        "title": "サッカーW杯日本代表の上田綺世選手の母校で後輩が応援 鹿嶋",
        "link": "https://www3.nhk.or.jp/lnews/mito/20221128/1070019291.html",
        "lat": "36.365861",
        "lon": "140.471222",
        "area": "水戸市"
    },
    {
        "title": "優勝目指す高安の出身地で後援会メンバーらが声援送る 土浦",
        "link": "https://www3.nhk.or.jp/lnews/mito/20221128/1070019292.html",
        "lat": "36.078391",
        "lon": "140.204143",
        "area": "土浦市"
    },
    {
        "title": "優勝の阿炎が敢闘賞 殊勲賞は高安が受賞",
        "link": "https://www3.nhk.or.jp/lnews/mito/20221127/1070019289.html",
        "lat": "36.293693631861736",
        "lon": "140.43273602371266",
        "area": "茨城町"
    },
    {
        "title": "“第８波”へ対応　県内の医療機関 発熱外来新設など体制強化",
        "link": "https://www3.nhk.or.jp/lnews/mito/20221125/1070019281.html",
        "lat": "36.29269737768252",
        "lon": "140.4316098924711",
        "area": "茨城町"
    },
    {
        "title": "栃木県 新型コロナに新たに８８３人感染 ２人死亡",
        "link": "https://www3.nhk.or.jp/lnews/utsunomiya/20221128/1090013865.html",
        "lat": "36.38402876200776",
        "lon": "139.7391676922094",
        "area": "栃木市"
    },
    {
        "title": "豚熱拡大防止にワクチンを野生のイノシシに向け空中散布",
        "link": "https://www3.nhk.or.jp/lnews/utsunomiya/20221128/1090013863.html",
        "lat": "36.39083544409933",
        "lon": "139.73753369834844",
        "area": "栃木市"
    },
    {
        "title": "JR宇都宮駅東口 再開発事業完了し記念式典",
        "link": "https://www3.nhk.or.jp/lnews/utsunomiya/20221128/1090013860.html",
        "lat": "36.555115",
        "lon": "139.882807",
        "area": "宇都宮市"
    },
    {
        "title": "県警本部で若者向け詐欺啓発動画優秀作の表彰式",
        "link": "https://www3.nhk.or.jp/lnews/utsunomiya/20221128/1090013866.html",
        "lat": "36.38835740287113",
        "lon": "139.7387211896221",
        "area": "栃木市"
    },
    {
        "title": "サッカーの合同トライアウト始まる ６４人が参加 宇都宮",
        "link": "https://www3.nhk.or.jp/lnews/utsunomiya/20221128/1090013864.html",
        "lat": "36.555115",
        "lon": "139.882807",
        "area": "宇都宮市"
    },
    {
        "title": "壬生藩主が食べた料理を再現 住民らが味わう催し",
        "link": "https://www3.nhk.or.jp/lnews/utsunomiya/20221128/1090013861.html",
        "lat": "36.427058",
        "lon": "139.803935",
        "area": "壬生町"
    },
    {
        "title": "栃木県 新型コロナ ３人死亡 １８６８人感染確認（２７日）",
        "link": "https://www3.nhk.or.jp/lnews/utsunomiya/20221127/1090013859.html",
        "lat": "36.38392455049776",
        "lon": "139.7419247523956",
        "area": "栃木市"
    },
    {
        "title": "新型コロナ ２人死亡 ８９９人感染 前週同曜日比２０４人増",
        "link": "https://www3.nhk.or.jp/lnews/maebashi/20221128/1060013396.html",
        "lat": "36.3963624184568",
        "lon": "139.0668242192081",
        "area": "群馬県"
    },
    {
        "title": "コスト上昇の影響受ける県内企業の４割「価格転嫁できず」",
        "link": "https://www3.nhk.or.jp/lnews/maebashi/20221128/1060013394.html",
        "lat": "36.39875518640074",
        "lon": "139.06196843668423",
        "area": "群馬県"
    },
    {
        "title": "Ｂ１ クレインサンダーズ４連勝 東地区２位と好調続く",
        "link": "https://www3.nhk.or.jp/lnews/maebashi/20221128/1060013393.html",
        "lat": "36.39973914081008",
        "lon": "139.06912990682522",
        "area": "群馬県"
    },
    {
        "title": "来月の全国大会出場 前橋育英高の選手ら ＮＨＫ前橋局を訪問",
        "link": "https://www3.nhk.or.jp/lnews/maebashi/20221128/1060013395.html",
        "lat": "36.389413",
        "lon": "139.063493",
        "area": "前橋市"
    },
    {
        "title": "解放の久保田徹さん 「ミャンマーの現実を伝えていきたい」",
        "link": "https://www3.nhk.or.jp/lnews/maebashi/20221126/1060013390.html",
        "lat": "36.244841",
        "lon": "139.542057",
        "area": "館林市"
    },
    {
        "title": "冬に増加 大型車のタイヤ脱落 適切な装着を呼びかけ 国交省",
        "link": "https://www3.nhk.or.jp/lnews/maebashi/20221125/1060013384.html",
        "lat": "36.48948",
        "lon": "139.000394",
        "area": "渋川市"
    },
    {
        "title": "県内スキー場 電気料金上昇でリフト券値上げや営業時間短縮も",
        "link": "https://www3.nhk.or.jp/lnews/maebashi/20221125/1060013386.html",
        "lat": "36.39998986358387",
        "lon": "139.06307578309955",
        "area": "群馬県"
    },
    {
        "title": "集合住宅で２人の遺体 この部屋の親子と連絡取れず 春日部",
        "link": "https://www3.nhk.or.jp/lnews/saitama/20221128/1100015602.html",
        "lat": "35.975305",
        "lon": "139.752409",
        "area": "春日部市"
    },
    {
        "title": "越谷市出身で平幕の阿炎 「ともえ戦」を制し初優勝",
        "link": "https://www3.nhk.or.jp/lnews/saitama/20221128/1100015603.html",
        "lat": "35.890805",
        "lon": "139.791014",
        "area": "越谷市"
    },
    {
        "title": "埼玉県 新型コロナ 新たに５３９５人感染確認（２７日）",
        "link": "https://www3.nhk.or.jp/lnews/saitama/20221127/1100015601.html",
        "lat": "35.86127902315259",
        "lon": "139.65064610056154",
        "area": "埼玉県"
    },
    {
        "title": "JR大宮駅東口近くで火災 近隣の３棟に延焼 けが人なし",
        "link": "https://www3.nhk.or.jp/lnews/saitama/20221127/1100015600.html",
        "lat": "35.861515",
        "lon": "139.645502",
        "area": "さいたま市"
    },
    {
        "title": "米エマニュエル駐日大使と高校生などが意見交換会 さいたま",
        "link": "https://www3.nhk.or.jp/lnews/saitama/20221126/1100015596.html",
        "lat": "35.861515",
        "lon": "139.645502",
        "area": "さいたま市"
    },
    {
        "title": "車内から男女２人の遺体  目立った外傷はないか 飯能",
        "link": "https://www3.nhk.or.jp/lnews/saitama/20221126/1100015592.html",
        "lat": "35.85576",
        "lon": "139.327791",
        "area": "飯能市"
    },
    {
        "title": "渋沢栄一の業績 巨大すごろくゲームで知る 埼玉 関越道ＳＡ",
        "link": "https://www3.nhk.or.jp/lnews/saitama/20221126/1100015595.html",
        "lat": "35.85842795378776",
        "lon": "139.6490991882301",
        "area": "埼玉県"
    },
    {
        "title": "住宅７棟が焼ける火事 １人死亡 ２人けが 松戸",
        "link": "https://www3.nhk.or.jp/lnews/chiba/20221128/1080019460.html",
        "lat": "35.787652",
        "lon": "139.903226",
        "area": "松戸市"
    },
    {
        "title": "千葉県 新型コロナ ３人死亡 新たに４２９９人感染確認",
        "link": "https://www3.nhk.or.jp/lnews/chiba/20221127/1080019458.html",
        "lat": "35.616525852747216",
        "lon": "140.1152234453735",
        "area": "千葉市"
    },
    {
        "title": "国内で唯一 いすみ鉄道で運行のキハ２８ 最後の定期運行",
        "link": "https://www3.nhk.or.jp/lnews/chiba/20221127/1080019457.html",
        "lat": "35.253887",
        "lon": "140.385117",
        "area": "いすみ市"
    },
    {
        "title": "コスタリカ戦応援へサポーターが出発 勝利を期待 成田空港",
        "link": "https://www3.nhk.or.jp/lnews/chiba/20221126/1080019454.html",
        "lat": "35.776605",
        "lon": "140.318781",
        "area": "成田市"
    },
    {
        "title": "千葉 香取 鳥インフルエンザ 県が飼育施設周辺の出荷禁止に",
        "link": "https://www3.nhk.or.jp/lnews/chiba/20221126/1080019450.html",
        "lat": "35.89773",
        "lon": "140.499248",
        "area": "香取市"
    },
    {
        "title": "拳銃２丁と実弾所持の疑い 愛知県の男女３人を逮捕",
        "link": "https://www3.nhk.or.jp/lnews/chiba/20221126/1080019453.html",
        "lat": "35.61641146773192",
        "lon": "140.11519594484116",
        "area": "千葉市"
    },
    {
        "title": "高校演劇部員の技術向上へ プロの劇団俳優による講習会 匝瑳",
        "link": "https://www3.nhk.or.jp/lnews/chiba/20221126/1080019451.html",
        "lat": "35.707914",
        "lon": "140.564356",
        "area": "匝瑳市"
    },
    {
        "title": "新型コロナ ４人死亡４０６６人感染 前週同曜日比５８１人増",
        "link": "https://www3.nhk.or.jp/lnews/yokohama/20221128/1050018197.html",
        "lat": "35.45765418056224",
        "lon": "139.64666267428146",
        "area": "神奈川県"
    },
    {
        "title": "７２歳男性車にはねられ死亡 運転していた８０歳の男逮捕",
        "link": "https://www3.nhk.or.jp/lnews/yokohama/20221128/1050018196.html",
        "lat": "35.443049",
        "lon": "139.362442",
        "area": "厚木市"
    },
    {
        "title": "代表４選手輩出クラブの子どもたち ＰＶで会場から声援 川崎",
        "link": "https://www3.nhk.or.jp/lnews/yokohama/20221128/1050018195.html",
        "lat": "35.530806",
        "lon": "139.703012",
        "area": "川崎市"
    },
    {
        "title": "神奈川 藤沢で新たに２基の古墳が見つかり 遺跡の見学会",
        "link": "https://www3.nhk.or.jp/lnews/yokohama/20221127/1050018191.html",
        "lat": "35.33894",
        "lon": "139.491116",
        "area": "藤沢市"
    },
    {
        "title": "スタンドアップパドルボード中の男性 海に転落し溺れて死亡",
        "link": "https://www3.nhk.or.jp/lnews/yokohama/20221127/1050018192.html",
        "lat": "35.319228",
        "lon": "139.54669",
        "area": "鎌倉市"
    },
    {
        "title": "職員の虐待疑い相次ぐ「中井やまゆり園 」改善取り組み報告会",
        "link": "https://www3.nhk.or.jp/lnews/yokohama/20221127/1050018190.html",
        "lat": "35.330751",
        "lon": "139.218766",
        "area": "中井町"
    },
    {
        "title": "物価高で信用保証協会が経営相談強化 有利な融資制度など紹介",
        "link": "https://www3.nhk.or.jp/lnews/yokohama/20221126/1050018185.html",
        "lat": "35.44841650564549",
        "lon": "139.6458003223651",
        "area": "神奈川県"
    },
    {
        "title": "新潟県 新型コロナに１２０５人感染 病床使用率５８％",
        "link": "https://www3.nhk.or.jp/lnews/niigata/20221128/1030023321.html",
        "lat": "37.919270026584286",
        "lon": "139.0369963438158",
        "area": "新潟市"
    },
    {
        "title": "横田めぐみさん拉致から４５年 母校の小学校で同級生が講演",
        "link": "https://www3.nhk.or.jp/lnews/niigata/20221128/1030023319.html",
        "lat": "37.924110561964866",
        "lon": "139.0430065984481",
        "area": "新潟市"
    },
    {
        "title": "大相撲元幕内で新潟市出身の豊山 ２９歳で現役を引退",
        "link": "https://www3.nhk.or.jp/lnews/niigata/20221128/1030023323.html",
        "lat": "37.918524992572344",
        "lon": "139.04439041412303",
        "area": "新潟市"
    },
    {
        "title": "水道局のパワハラ裁判で賠償命令 市が控訴しない方針表明",
        "link": "https://www3.nhk.or.jp/lnews/niigata/20221128/1030023324.html",
        "lat": "37.918867136058715",
        "lon": "139.0417138521626",
        "area": "新潟市"
    },
    {
        "title": "新潟空港拠点の新航空会社「トキエア」乗客の訓練を公開",
        "link": "https://www3.nhk.or.jp/lnews/niigata/20221128/1030023315.html",
        "lat": "37.91734591314397",
        "lon": "139.0458843497761",
        "area": "新潟市"
    },
    {
        "title": "スケートボード日本選手権 五輪金メダリストの平野歩夢が出場",
        "link": "https://www3.nhk.or.jp/lnews/niigata/20221128/1030023316.html",
        "lat": "38.22399",
        "lon": "139.48004",
        "area": "村上市"
    },
    {
        "title": "衆院小選挙区数「１０増１０減」の改正法公布 来月２８日施行",
        "link": "https://www3.nhk.or.jp/lnews/niigata/20221128/1030023317.html",
        "lat": "37.91758219182175",
        "lon": "139.03974581769492",
        "area": "新潟市"
    },
    {
        "title": "舟橋村長選　新人の渡辺氏が当選",
        "link": "https://www3.nhk.or.jp/lnews/toyama/20221128/3060011957.html",
        "lat": "36.703525",
        "lon": "137.307372",
        "area": "舟橋村"
    },
    {
        "title": "舟橋村長選で当選の渡辺新村長に当選証書授与",
        "link": "https://www3.nhk.or.jp/lnews/toyama/20221128/3060011960.html",
        "lat": "36.703525",
        "lon": "137.307372",
        "area": "舟橋村"
    },
    {
        "title": "１１月県議会開会　新田知事「同時流行備え医療提供体制強化」",
        "link": "https://www3.nhk.or.jp/lnews/toyama/20221128/3060011964.html",
        "lat": "36.69708218916962",
        "lon": "137.21622242066564",
        "area": "富山市"
    },
    {
        "title": "新型コロナ対策の新レベル分類と指標　きょうから適用",
        "link": "https://www3.nhk.or.jp/lnews/toyama/20221128/3060011958.html",
        "lat": "36.69972908729709",
        "lon": "137.21939565243665",
        "area": "富山市"
    },
    {
        "title": "入善町の小学校で食材を提供している農家と児童がふれあい給食",
        "link": "https://www3.nhk.or.jp/lnews/toyama/20221128/3060011962.html",
        "lat": "36.933578",
        "lon": "137.502128",
        "area": "入善町"
    },
    {
        "title": "新型コロナ　２８日　３５７人感染確認　感染警報に引き上げへ",
        "link": "https://www3.nhk.or.jp/lnews/toyama/20221128/3060011965.html",
        "lat": "36.70087084353054",
        "lon": "137.21650749149973",
        "area": "富山市"
    },
    {
        "title": "関西行き高速バス　１２月２３日から１日３往復運行へ",
        "link": "https://www3.nhk.or.jp/lnews/toyama/20221128/3060011959.html",
        "lat": "36.70597657690453",
        "lon": "137.21643618352965",
        "area": "富山市"
    },
    {
        "title": "サッカーＷ杯　コスタリカ戦に県内からも声援",
        "link": "https://www3.nhk.or.jp/lnews/kanazawa/20221128/3020013430.html",
        "lat": "36.561051",
        "lon": "136.656633",
        "area": "金沢市"
    },
    {
        "title": "来年の「金沢百万石まつり」　沿道からの写真撮影が可能に",
        "link": "https://www3.nhk.or.jp/lnews/kanazawa/20221128/3020013433.html",
        "lat": "36.561051",
        "lon": "136.656633",
        "area": "金沢市"
    },
    {
        "title": "“緩やかに持ち直し“　判断維持も物価上昇に注意を",
        "link": "https://www3.nhk.or.jp/lnews/kanazawa/20221128/3020013434.html",
        "lat": "36.59588612003352",
        "lon": "136.6285732813868",
        "area": "石川県"
    },
    {
        "title": "新型コロナ　２８日　３７６人感染確認",
        "link": "https://www3.nhk.or.jp/lnews/kanazawa/20221128/3020013432.html",
        "lat": "36.60180001177327",
        "lon": "136.6263764425416",
        "area": "石川県"
    },
    {
        "title": "シャインマスカット　出荷始まる　宝達志水町",
        "link": "https://www3.nhk.or.jp/lnews/kanazawa/20221128/3020013431.html",
        "lat": "36.862759",
        "lon": "136.797557",
        "area": "宝達志水町"
    },
    {
        "title": "北前船で栄えた町並みと芸術とともに楽しむ",
        "link": "https://www3.nhk.or.jp/lnews/kanazawa/20221128/3020013429.html",
        "lat": "37.390839",
        "lon": "136.899206",
        "area": "輪島市"
    },
    {
        "title": "元なでしこジャパンの澤穂希さんらがサッカー教室　金沢市",
        "link": "https://www3.nhk.or.jp/lnews/kanazawa/20221127/3020013426.html",
        "lat": "36.561051",
        "lon": "136.656633",
        "area": "金沢市"
    },
    {
        "title": "新型コロナ　２８日　１人死亡　３００人感染確認",
        "link": "https://www3.nhk.or.jp/lnews/fukui/20221128/3050013155.html",
        "lat": "36.069374560295245",
        "lon": "136.22143009946103",
        "area": "福井市"
    },
    {
        "title": "原発立地市町村で初のＰＡＣ３訓練　おおい町",
        "link": "https://www3.nhk.or.jp/lnews/fukui/20221128/3050013153.html",
        "lat": "35.481128",
        "lon": "135.617885",
        "area": "おおい町"
    },
    {
        "title": "県の１２月補正予算案　物価高騰支援で過去最大規模に",
        "link": "https://www3.nhk.or.jp/lnews/fukui/20221128/3050013154.html",
        "lat": "36.072327631566324",
        "lon": "136.21949242322748",
        "area": "福井市"
    },
    {
        "title": "原発の最大限活用へ経産省が行動計画案　政府方針明確に転換",
        "link": "https://www3.nhk.or.jp/lnews/fukui/20221128/3050013156.html",
        "lat": "36.068694715123975",
        "lon": "136.22851212186862",
        "area": "福井市"
    },
    {
        "title": "北陸新幹線県内開業に向け４プロジェクト",
        "link": "https://www3.nhk.or.jp/lnews/fukui/20221128/3050013152.html",
        "lat": "36.071295885064686",
        "lon": "136.22839781661514",
        "area": "福井市"
    },
    {
        "title": "敦賀　漁港の防波堤から転落の釣り人を捜索するも見つからず",
        "link": "https://www3.nhk.or.jp/lnews/fukui/20221127/3050013151.html",
        "lat": "35.645222",
        "lon": "136.055544",
        "area": "敦賀市"
    },
    {
        "title": "若狭町の熊川宿で特産品や雑貨などを販売する「熊川マルシェ」",
        "link": "https://www3.nhk.or.jp/lnews/fukui/20221127/3050013150.html",
        "lat": "35.548882",
        "lon": "135.908384",
        "area": "若狭町"
    },
    {
        "title": "ワクチン大規模接種会場 １２月から接種時間や人数を拡大",
        "link": "https://www3.nhk.or.jp/lnews/kofu/20221128/1040018667.html",
        "lat": "35.627928",
        "lon": "138.535148",
        "area": "昭和町"
    },
    {
        "title": "県内 新型コロナ 新たに７７０人感染 ３日連続７００人超に",
        "link": "https://www3.nhk.or.jp/lnews/kofu/20221128/1040018666.html",
        "lat": "35.70277575730854",
        "lon": "138.69392378040885",
        "area": "山梨市"
    },
    {
        "title": "山梨・静岡・神奈川 ３県合同の大規模災害対応訓練",
        "link": "https://www3.nhk.or.jp/lnews/kofu/20221128/1040018668.html",
        "lat": "35.467569",
        "lon": "138.442488",
        "area": "身延町"
    },
    {
        "title": "来年１月の知事選 自民党県連が現職の長崎幸太郎氏を推薦",
        "link": "https://www3.nhk.or.jp/lnews/kofu/20221128/1040018665.html",
        "lat": "35.700897292015966",
        "lon": "138.69042620657277",
        "area": "山梨市"
    },
    {
        "title": "高校生が手軽に作れる朝食レシピを考案 冊子に 富士吉田",
        "link": "https://www3.nhk.or.jp/lnews/kofu/20221128/1040018662.html",
        "lat": "35.487499",
        "lon": "138.807857",
        "area": "富士吉田市"
    },
    {
        "title": "大相撲九州場所千秋楽  竜電は琴ノ若に敗れ９勝６敗",
        "link": "https://www3.nhk.or.jp/lnews/kofu/20221127/1040018664.html",
        "lat": "35.662033",
        "lon": "138.568339",
        "area": "甲府市"
    },
    {
        "title": "果物盗難事件裁判 ベトナム人の被告 茨城での起訴内容認める",
        "link": "https://www3.nhk.or.jp/lnews/kofu/20221125/1040018653.html",
        "lat": "35.662033",
        "lon": "138.568339",
        "area": "甲府市"
    },
    {
        "title": "県内政党などの政治資金 去年 収入支出とも前年比２割ほど増",
        "link": "https://www3.nhk.or.jp/lnews/nagano/20221128/1010024796.html",
        "lat": "36.655582343301575",
        "lon": "138.20187168640544",
        "area": "長野市"
    },
    {
        "title": "佐久市生まれの映画監督 崔洋一さん死去 ７３歳",
        "link": "https://www3.nhk.or.jp/lnews/nagano/20221128/1010024799.html",
        "lat": "36.248788",
        "lon": "138.476831",
        "area": "佐久市"
    },
    {
        "title": "小澤さんが総監督のフェスティバル 30周年で秋の特別公演",
        "link": "https://www3.nhk.or.jp/lnews/nagano/20221128/1010024800.html",
        "lat": "36.238096",
        "lon": "137.971992",
        "area": "松本市"
    },
    {
        "title": "西武・水上投手の新人王祝うセレモニー 出身地の宮田村で開催",
        "link": "https://www3.nhk.or.jp/lnews/nagano/20221128/1010024801.html",
        "lat": "35.768882",
        "lon": "137.944209",
        "area": "宮田村"
    },
    {
        "title": "サッカーＷ杯 コスタリカと交流ある松川町 両国選手を応援",
        "link": "https://www3.nhk.or.jp/lnews/nagano/20221128/1010024798.html",
        "lat": "36.424045",
        "lon": "137.854556",
        "area": "松川村"
    },
    {
        "title": "旧富士見村の満州開拓団員供養の集い ことしで最後に",
        "link": "https://www3.nhk.or.jp/lnews/nagano/20221128/1010024797.html",
        "lat": "35.914652",
        "lon": "138.24074",
        "area": "富士見町"
    },
    {
        "title": "地域走る鉄道に親しむ催し 鉄道ファンらが楽しむ 上田",
        "link": "https://www3.nhk.or.jp/lnews/nagano/20221128/1010024794.html",
        "lat": "36.401978",
        "lon": "138.248676",
        "area": "上田市"
    },
    {
        "title": "去年の政治資金　知事選や衆院選で前年より４．８％増",
        "link": "https://www3.nhk.or.jp/lnews/gifu/20221128/3080010203.html",
        "lat": "35.42679981389567",
        "lon": "136.76890054215212",
        "area": "岐阜市"
    },
    {
        "title": "飛騨市で赤ちゃんの睡眠を学ぶ講座",
        "link": "https://www3.nhk.or.jp/lnews/gifu/20221128/3080010201.html",
        "lat": "36.238144",
        "lon": "137.186246",
        "area": "飛騨市"
    },
    {
        "title": "県の新庁舎が完成し一般向け内覧会を実施へ",
        "link": "https://www3.nhk.or.jp/lnews/gifu/20221128/3080010202.html",
        "lat": "35.42903097248839",
        "lon": "136.76299921563026",
        "area": "岐阜市"
    },
    {
        "title": "五輪ホッケー女子の元監督　安田善治郎さんがホッケー教室",
        "link": "https://www3.nhk.or.jp/lnews/gifu/20221126/3080010195.html",
        "lat": "35.319489",
        "lon": "136.702718",
        "area": "羽島市"
    },
    {
        "title": "高山市丹生川町　高地栽培の飛騨のりくらねぎ収穫",
        "link": "https://www3.nhk.or.jp/lnews/gifu/20221127/3080010198.html",
        "lat": "36.146093",
        "lon": "137.252206",
        "area": "高山市"
    },
    {
        "title": "連続テレビ小説「さくら」放送から２０年でトークショー",
        "link": "https://www3.nhk.or.jp/lnews/gifu/20221128/3080010200.html",
        "lat": "36.238144",
        "lon": "137.186246",
        "area": "飛騨市"
    },
    {
        "title": "新型コロナ　２７日　１８４４人感染確認　感染者６人死亡",
        "link": "https://www3.nhk.or.jp/lnews/gifu/20221127/3080010199.html",
        "lat": "35.42987964235272",
        "lon": "136.76544749481377",
        "area": "岐阜市"
    },
    {
        "title": "去年の政治資金　収入・支出とも大幅増",
        "link": "https://www3.nhk.or.jp/lnews/shizuoka/20221128/3030018408.html",
        "lat": "34.97574422518101",
        "lon": "138.38453437403882",
        "area": "静岡市"
    },
    {
        "title": "サッカーＷ杯　日本×コスタリカ　県内でも落胆の声",
        "link": "https://www3.nhk.or.jp/lnews/shizuoka/20221128/3030018409.html",
        "lat": "34.98352863494175",
        "lon": "138.38686158299438",
        "area": "静岡市"
    },
    {
        "title": "三島でも暴力団隠し祭りで出店か　詐欺の疑いで５人再逮捕",
        "link": "https://www3.nhk.or.jp/lnews/shizuoka/20221128/3030018412.html",
        "lat": "35.095723",
        "lon": "138.863337",
        "area": "沼津市"
    },
    {
        "title": "裾野市 富士山噴火想定の避難訓練　ハザードマップ改定踏まえ",
        "link": "https://www3.nhk.or.jp/lnews/shizuoka/20221127/3030018406.html",
        "lat": "35.161386",
        "lon": "138.676311",
        "area": "富士市"
    },
    {
        "title": "新型コロナ　２７日　２３６２人感染　先週日曜日比６２０人増",
        "link": "https://www3.nhk.or.jp/lnews/shizuoka/20221127/3030018405.html",
        "lat": "34.97951190039846",
        "lon": "138.3897280708855",
        "area": "静岡市"
    },
    {
        "title": "「三方ヶ原の戦い」浜松市で展示会",
        "link": "https://www3.nhk.or.jp/lnews/shizuoka/20221128/3030018411.html",
        "lat": "34.710865",
        "lon": "137.726117",
        "area": "浜松市"
    },
    {
        "title": "大河「どうする家康」考証担当とプロデューサーがトークショー",
        "link": "https://www3.nhk.or.jp/lnews/shizuoka/20221127/3030018402.html",
        "lat": "34.976677787062584",
        "lon": "138.38338770888146",
        "area": "静岡市"
    },
    {
        "title": "川越町　工場で木くずに作業員埋まり１人死亡　１人心肺停止",
        "link": "https://www3.nhk.or.jp/lnews/tsu/20221128/3070009357.html",
        "lat": "35.02295",
        "lon": "136.673971",
        "area": "川越町"
    },
    {
        "title": "新型コロナ　２８日　１１２４人感染確認",
        "link": "https://www3.nhk.or.jp/lnews/tsu/20221128/3070009354.html",
        "lat": "34.73329481632774",
        "lon": "136.5102279667536",
        "area": "三重県"
    },
    {
        "title": "鈴鹿市内の新スタジアム建設　資金調達進まず白紙へ",
        "link": "https://www3.nhk.or.jp/lnews/tsu/20221128/3070009356.html",
        "lat": "34.881866",
        "lon": "136.584185",
        "area": "鈴鹿市"
    },
    {
        "title": "３年ぶりに松阪牛の品評会開催",
        "link": "https://www3.nhk.or.jp/lnews/tsu/20221127/3070009348.html",
        "lat": "34.577974",
        "lon": "136.527595",
        "area": "松阪市"
    },
    {
        "title": "四日市「中央通り」の将来像を考えるシンポジウム",
        "link": "https://www3.nhk.or.jp/lnews/tsu/20221128/3070009358.html",
        "lat": "34.965092",
        "lon": "136.624427",
        "area": "四日市市"
    },
    {
        "title": "“農福連携”をＰＲ　障害者が育てた農産物などを販売",
        "link": "https://www3.nhk.or.jp/lnews/tsu/20221126/3070009343.html",
        "lat": "34.718563",
        "lon": "136.505443",
        "area": "津市"
    },
    {
        "title": "伊勢市で夜釣りの釣り人が堤防から転落し死亡",
        "link": "https://www3.nhk.or.jp/lnews/tsu/20221127/3070009345.html",
        "lat": "34.487506",
        "lon": "136.709286",
        "area": "伊勢市"
    },
    {
        "title": "知事「オミクロン株対応ワクチン１２月上旬までに接種を」",
        "link": "https://www3.nhk.or.jp/lnews/otsu/20221128/2060012066.html",
        "lat": "35.00831942115046",
        "lon": "135.87033574083804",
        "area": "滋賀県"
    },
    {
        "title": "Ｖリーグ１部女子 東レアローズ 久光スプリングスに１勝１敗",
        "link": "https://www3.nhk.or.jp/lnews/otsu/20221128/2060012063.html",
        "lat": "35.01046076241619",
        "lon": "135.87090773386413",
        "area": "滋賀県"
    },
    {
        "title": "Ｂリーグ 滋賀レイクスは名古屋に２連敗",
        "link": "https://www3.nhk.or.jp/lnews/otsu/20221128/2060012062.html",
        "lat": "35.01247348562284",
        "lon": "135.8768243984287",
        "area": "滋賀県"
    },
    {
        "title": "ＤｅＮＡドラフト育成契約 滋賀学園高の鈴木蓮選手が意気込み",
        "link": "https://www3.nhk.or.jp/lnews/otsu/20221128/2060012065.html",
        "lat": "35.00616421513334",
        "lon": "135.87031095318815",
        "area": "滋賀県"
    },
    {
        "title": "大相撲九州場所千秋楽 大津市出身の鳰の湖は敗れて２勝５敗",
        "link": "https://www3.nhk.or.jp/lnews/otsu/20221128/2060012064.html",
        "lat": "35.018357",
        "lon": "135.854666",
        "area": "大津市"
    },
    {
        "title": "近江八幡市でびわ湖固有の魚「ホンモロコ」つくだ煮作り始まる",
        "link": "https://www3.nhk.or.jp/lnews/otsu/20221127/2060012059.html",
        "lat": "35.128214",
        "lon": "136.097846",
        "area": "近江八幡市"
    },
    {
        "title": "“いい風呂の日” 大津市で自転車に乗って銭湯を巡るツアー",
        "link": "https://www3.nhk.or.jp/lnews/otsu/20221126/2060012058.html",
        "lat": "35.018357",
        "lon": "135.854666",
        "area": "大津市"
    },
    {
        "title": "新型コロナ 京都府で新たに４３５人の感染確認",
        "link": "https://www3.nhk.or.jp/lnews/kyoto/20221128/2010016073.html",
        "lat": "35.01491822638621",
        "lon": "135.76871502182578",
        "area": "京都市"
    },
    {
        "title": "京セラ 稲盛和夫名誉会長 京都市内でお別れの会",
        "link": "https://www3.nhk.or.jp/lnews/kyoto/20221128/2010016072.html",
        "lat": "35.01570949821213",
        "lon": "135.77543986077717",
        "area": "京都市"
    },
    {
        "title": "京都府 オミクロン株対応ワクチン ２９日から予約開始",
        "link": "https://www3.nhk.or.jp/lnews/kyoto/20221128/2010016071.html",
        "lat": "35.01389187035226",
        "lon": "135.76925693954476",
        "area": "京都市"
    },
    {
        "title": "東本願寺 親鸞の命日に「坂東曲」僧侶が激しく体を動かし念仏",
        "link": "https://www3.nhk.or.jp/lnews/kyoto/20221128/2010016070.html",
        "lat": "35.020594420335044",
        "lon": "135.77042202228483",
        "area": "京都市"
    },
    {
        "title": "サッカーＷ杯コスタリカ戦 鎌田選手母校で後輩が応援 左京区",
        "link": "https://www3.nhk.or.jp/lnews/kyoto/20221128/2010016067.html",
        "lat": "35.04858",
        "lon": "135.778575",
        "area": "左京区"
    },
    {
        "title": "大相撲九州場所千秋楽 宇良と千代栄はともに負け越し",
        "link": "https://www3.nhk.or.jp/lnews/kyoto/20221128/2010016068.html",
        "lat": "35.296725",
        "lon": "135.126532",
        "area": "福知山市"
    },
    {
        "title": "ＤｅＮＡ入団発表 森下瑠大投手が「毎年ふたケタ勝利」と抱負",
        "link": "https://www3.nhk.or.jp/lnews/kyoto/20221128/2010016069.html",
        "lat": "35.01165994689928",
        "lon": "135.77788415423353",
        "area": "京都市"
    },
    {
        "title": "奈良で結成の人気ロックバンドが観光大使に 国内外に魅力発信",
        "link": "https://www3.nhk.or.jp/lnews/nara/20221128/2050012252.html",
        "lat": "34.69343481882908",
        "lon": "135.807756860082",
        "area": "奈良市"
    },
    {
        "title": "奈良ホテルにクリスマスツリー 廃棄予定のコルクを飾りに",
        "link": "https://www3.nhk.or.jp/lnews/nara/20221128/2050012251.html",
        "lat": "34.694316660787514",
        "lon": "135.80699295466954",
        "area": "奈良市"
    },
    {
        "title": "近畿高校総合文化祭 演劇部門で奈良県立ろう学校が優秀賞",
        "link": "https://www3.nhk.or.jp/lnews/nara/20221128/2050012250.html",
        "lat": "34.69098857446246",
        "lon": "135.81205898301866",
        "area": "奈良市"
    },
    {
        "title": "奈良市 ４月から運用の新火葬場 利用が見込みを上回る可能性",
        "link": "https://www3.nhk.or.jp/lnews/nara/20221128/2050012249.html",
        "lat": "34.68686650399835",
        "lon": "135.8101361415666",
        "area": "奈良市"
    },
    {
        "title": "奈良クラブ フリアン監督と契約更新 Ｊ３参入の立て役者",
        "link": "https://www3.nhk.or.jp/lnews/nara/20221128/2050012247.html",
        "lat": "34.6948595401498",
        "lon": "135.8116665825116",
        "area": "奈良市"
    },
    {
        "title": "王寺町 ５年生が防災教室 大雨の際の避難タイミングを考える",
        "link": "https://www3.nhk.or.jp/lnews/nara/20221128/2050012246.html",
        "lat": "34.594696",
        "lon": "135.706705",
        "area": "王寺町"
    },
    {
        "title": "大相撲九州場所千秋楽 奈良県出身力士の取組の結果",
        "link": "https://www3.nhk.or.jp/lnews/nara/20221128/2050012245.html",
        "lat": "34.69228542150019",
        "lon": "135.8082395377683",
        "area": "奈良市"
    },
    {
        "title": "新型コロナ 和歌山県で新たに４１８人の感染確認 １人死亡",
        "link": "https://www3.nhk.or.jp/lnews/wakayama/20221128/2040013233.html",
        "lat": "34.23895629924999",
        "lon": "135.18066333664405",
        "area": "和歌山市"
    },
    {
        "title": "海南市 小学生がバスの乗り方やマナー学ぶ ボタン押しも体験",
        "link": "https://www3.nhk.or.jp/lnews/wakayama/20221128/2040013232.html",
        "lat": "34.157533",
        "lon": "135.239675",
        "area": "海南市"
    },
    {
        "title": "岸本周平氏が知事選初当選 仁坂知事“県政運営の手腕に期待”",
        "link": "https://www3.nhk.or.jp/lnews/wakayama/20221128/2040013231.html",
        "lat": "34.23066138911264",
        "lon": "135.17550874086618",
        "area": "和歌山市"
    },
    {
        "title": "全国高専ロボコン 和歌山高専は決勝進出を逃すも技術賞受賞",
        "link": "https://www3.nhk.or.jp/lnews/wakayama/20221128/2040013229.html",
        "lat": "34.23247802039716",
        "lon": "135.17264764839882",
        "area": "和歌山市"
    },
    {
        "title": "大相撲九州場所 和歌山県出身力士の取組の結果",
        "link": "https://www3.nhk.or.jp/lnews/wakayama/20221128/2040013230.html",
        "lat": "34.157533",
        "lon": "135.239675",
        "area": "海南市"
    },
    {
        "title": "和歌山県知事選 元衆院議員の岸本周平氏が初当選",
        "link": "https://www3.nhk.or.jp/lnews/wakayama/20221128/2040013227.html",
        "lat": "34.23872954806576",
        "lon": "135.17872466896617",
        "area": "和歌山市"
    },
    {
        "title": "和歌山県知事選 田辺市でトラブル 約７時間半遅れで開票終了",
        "link": "https://www3.nhk.or.jp/lnews/wakayama/20221128/2040013228.html",
        "lat": "33.72801",
        "lon": "135.377662",
        "area": "田辺市"
    },
    {
        "title": "島根原発事故想定の訓練 課題や今後の改善点を検討する会議",
        "link": "https://www3.nhk.or.jp/lnews/tottori/20221128/4040013597.html",
        "lat": "35.49952913595994",
        "lon": "134.23189686507544",
        "area": "鳥取市"
    },
    {
        "title": "鳥取県 新型コロナ新たに255人感染確認",
        "link": "https://www3.nhk.or.jp/lnews/tottori/20221128/4040013598.html",
        "lat": "35.430182",
        "lon": "133.825561",
        "area": "倉吉市"
    },
    {
        "title": "鳥取市の高齢者福祉施設でクラスターが発生",
        "link": "https://www3.nhk.or.jp/lnews/tottori/20221128/4040013599.html",
        "lat": "35.50306731734465",
        "lon": "134.2319769676864",
        "area": "鳥取市"
    },
    {
        "title": "鳥取市 コロナ影響のバス会社支援など補正予算案まとめる",
        "link": "https://www3.nhk.or.jp/lnews/tottori/20221128/4040013596.html",
        "lat": "35.496502926959316",
        "lon": "134.2267201108762",
        "area": "鳥取市"
    },
    {
        "title": "ワールドカップ日本代表コスタリカ戦 鳥取市のバーでも観戦",
        "link": "https://www3.nhk.or.jp/lnews/tottori/20221128/4040013595.html",
        "lat": "35.497894021531444",
        "lon": "134.2298333527507",
        "area": "鳥取市"
    },
    {
        "title": "湯梨浜町で外国人招き町発祥のスポーツ グラウンドゴルフ大会",
        "link": "https://www3.nhk.or.jp/lnews/tottori/20221127/4040013586.html",
        "lat": "35.489915",
        "lon": "133.864681",
        "area": "湯梨浜町"
    },
    {
        "title": "米子空港国際線定期便再開へ 施設整備費最大1000万円補助",
        "link": "https://www3.nhk.or.jp/lnews/tottori/20221128/4040013594.html",
        "lat": "35.428136",
        "lon": "133.330939",
        "area": "米子市"
    },
    {
        "title": "児童を盗撮の元小学校教諭に有罪判決",
        "link": "https://www3.nhk.or.jp/lnews/matsue/20221128/4030014548.html",
        "lat": "35.468039",
        "lon": "133.048527",
        "area": "松江市"
    },
    {
        "title": "島根県　新型コロナ　新たに２４２人感染確認",
        "link": "https://www3.nhk.or.jp/lnews/matsue/20221128/4030014552.html",
        "lat": "35.366917",
        "lon": "132.754712",
        "area": "出雲市"
    },
    {
        "title": "島根原発防災訓練受け課題や今後の改善点を検討",
        "link": "https://www3.nhk.or.jp/lnews/matsue/20221128/4030014550.html",
        "lat": "35.47480412508773",
        "lon": "133.05249853196082",
        "area": "島根県"
    },
    {
        "title": "冬用タイヤの早めの装着呼びかけ　津和野町",
        "link": "https://www3.nhk.or.jp/lnews/matsue/20221128/4030014549.html",
        "lat": "34.541961",
        "lon": "131.83508",
        "area": "津和野町"
    },
    {
        "title": "盗まれた「橋名板」中学生が窯で焼き上げ橋に設置　大田市",
        "link": "https://www3.nhk.or.jp/lnews/matsue/20221128/4030014551.html",
        "lat": "35.19209",
        "lon": "132.499351",
        "area": "大田市"
    },
    {
        "title": "国の重要文化財の住宅で江戸時代の食事体験 隠岐の島町",
        "link": "https://www3.nhk.or.jp/lnews/matsue/20221128/4030014547.html",
        "lat": "36.213394",
        "lon": "133.311818",
        "area": "隠岐の島町"
    },
    {
        "title": "自転車事故死亡８人全員ヘルメットかぶらず 警察着用呼びかけ",
        "link": "https://www3.nhk.or.jp/lnews/matsue/20221128/4030014545.html",
        "lat": "35.47911867349419",
        "lon": "133.05915802267364",
        "area": "島根県"
    },
    {
        "title": "新見市で住宅が全焼し1人死亡 この住宅の男性か",
        "link": "https://www3.nhk.or.jp/lnews/okayama/20221128/4020014887.html",
        "lat": "34.977058",
        "lon": "133.470345",
        "area": "新見市"
    },
    {
        "title": "岡山県 新型コロナ870人感染確認 4日連続で前週比増",
        "link": "https://www3.nhk.or.jp/lnews/okayama/20221128/4020014894.html",
        "lat": "34.66038782680119",
        "lon": "133.92168230383416",
        "area": "岡山市"
    },
    {
        "title": "「奉納刀鍛錬」神社に奉納する刀を作る 瀬戸内市長船町",
        "link": "https://www3.nhk.or.jp/lnews/okayama/20221128/4020014889.html",
        "lat": "34.664893",
        "lon": "134.092849",
        "area": "瀬戸内市"
    },
    {
        "title": "ＪＲ岡山支社長 芸備線“特定の前提置かず議論の場設けたい”",
        "link": "https://www3.nhk.or.jp/lnews/okayama/20221128/4020014896.html",
        "lat": "34.66149106698972",
        "lon": "133.91992799113365",
        "area": "岡山市"
    },
    {
        "title": "「地域文化功労者表彰」県内から1人と1団体",
        "link": "https://www3.nhk.or.jp/lnews/okayama/20221128/4020014893.html",
        "lat": "34.507182",
        "lon": "133.507441",
        "area": "笠岡市"
    },
    {
        "title": "備前市 地元の県立高校入学者に制服代や定期代の一部を補助",
        "link": "https://www3.nhk.or.jp/lnews/okayama/20221128/4020014890.html",
        "lat": "34.74521",
        "lon": "134.188822",
        "area": "備前市"
    },
    {
        "title": "岡山市中区沢田地区の富有柿 直売所多くの人でにぎわう",
        "link": "https://www3.nhk.or.jp/lnews/okayama/20221128/4020014897.html",
        "lat": "34.670776",
        "lon": "133.943144",
        "area": "中区"
    },
    {
        "title": "新型コロナ　県内で１３２４人感染確認 １人死亡　２８日発表",
        "link": "https://www3.nhk.or.jp/lnews/hiroshima/20221128/4000020414.html",
        "lat": "34.39030212521804",
        "lon": "132.46416090418728",
        "area": "広島市"
    },
    {
        "title": "備後地方特産の畳表向け　いぐさ植え付け",
        "link": "https://www3.nhk.or.jp/lnews/hiroshima/20221128/4000020413.html",
        "lat": "34.485927",
        "lon": "133.36234",
        "area": "福山市"
    },
    {
        "title": "新型コロナ　県内の病床使用率　６１．６％（２７日）",
        "link": "https://www3.nhk.or.jp/lnews/hiroshima/20221128/4000020412.html",
        "lat": "34.39329904146337",
        "lon": "132.45556948100216",
        "area": "広島市"
    },
    {
        "title": "「デートＤＶ」漫画で被害防止　広島市がＳＮＳ公開へ",
        "link": "https://www3.nhk.or.jp/lnews/hiroshima/20221128/4000020411.html",
        "lat": "34.38977193114284",
        "lon": "132.46295091966877",
        "area": "広島市"
    },
    {
        "title": "Ｗ杯コスタリカ戦　府中町の映画館でＰＶ",
        "link": "https://www3.nhk.or.jp/lnews/hiroshima/20221128/4000020409.html",
        "lat": "34.392589",
        "lon": "132.504544",
        "area": "府中町"
    },
    {
        "title": "警察官装う特殊詐欺の被害相次ぐ　注意を",
        "link": "https://www3.nhk.or.jp/lnews/hiroshima/20221128/4000020410.html",
        "lat": "34.38897250189191",
        "lon": "132.46284225734348",
        "area": "広島市"
    },
    {
        "title": "女子高校生誘拐で２９歳逮捕",
        "link": "https://www3.nhk.or.jp/lnews/hiroshima/20221127/4000020408.html",
        "lat": "34.38615871054265",
        "lon": "132.46349113865952",
        "area": "広島市"
    },
    {
        "title": "上関原発　県が埋め立て工事の免許延長を許可",
        "link": "https://www3.nhk.or.jp/lnews/yamaguchi/20221128/4060015478.html",
        "lat": "33.831093",
        "lon": "132.110772",
        "area": "上関町"
    },
    {
        "title": "山口県　新型コロナ　新たに３２０人感染確認　４人死亡",
        "link": "https://www3.nhk.or.jp/lnews/yamaguchi/20221128/4060015482.html",
        "lat": "34.1795378540518",
        "lon": "131.47639098929423",
        "area": "山口市"
    },
    {
        "title": "「全国高専ロボコン」徳山高専がロボコン大賞受賞",
        "link": "https://www3.nhk.or.jp/lnews/yamaguchi/20221128/4060015476.html",
        "lat": "34.055135",
        "lon": "131.806293",
        "area": "周南市"
    },
    {
        "title": "新たな捕鯨船の命名権下関市に 船名を公募",
        "link": "https://www3.nhk.or.jp/lnews/yamaguchi/20221128/4060015475.html",
        "lat": "33.957279",
        "lon": "130.940935",
        "area": "下関市"
    },
    {
        "title": "日本対コスタリカ戦　宇部市でパブリック・ビューイング",
        "link": "https://www3.nhk.or.jp/lnews/yamaguchi/20221128/4060015477.html",
        "lat": "33.951623",
        "lon": "131.246761",
        "area": "宇部市"
    },
    {
        "title": "元日本代表の遠藤選手らが萩市でサッカー教室 子どもたち指導",
        "link": "https://www3.nhk.or.jp/lnews/yamaguchi/20221127/4060015473.html",
        "lat": "34.408107",
        "lon": "131.399104",
        "area": "萩市"
    },
    {
        "title": "オリンピック４連覇 伊調馨選手が周南市でレスリング体験会",
        "link": "https://www3.nhk.or.jp/lnews/yamaguchi/20221127/4060015472.html",
        "lat": "34.055135",
        "lon": "131.806293",
        "area": "周南市"
    },
    {
        "title": "四国電力 ２８％余値上げを申請 過去最大の値上げ額",
        "link": "https://www3.nhk.or.jp/lnews/tokushima/20221128/8020016237.html",
        "lat": "34.07688828761248",
        "lon": "134.5621119393179",
        "area": "徳島市"
    },
    {
        "title": "「食用コオロギ」の粉末使ったコロッケの給食提供 小松島市",
        "link": "https://www3.nhk.or.jp/lnews/tokushima/20221128/8020016242.html",
        "lat": "34.004713",
        "lon": "134.590603",
        "area": "小松島市"
    },
    {
        "title": "徳島県 新型コロナ １人死亡 １０８人感染確認",
        "link": "https://www3.nhk.or.jp/lnews/tokushima/20221128/8020016239.html",
        "lat": "34.07098952912651",
        "lon": "134.56210043256172",
        "area": "徳島市"
    },
    {
        "title": "ＩＣ乗車券使えな徳島県でスマホアプリで乗車開始 ＪＲ四国",
        "link": "https://www3.nhk.or.jp/lnews/tokushima/20221128/8020016238.html",
        "lat": "34.0712259302906",
        "lon": "134.55895279001732",
        "area": "徳島市"
    },
    {
        "title": "県議会が物価対策など重点の補正予算案 緊急対策として可決",
        "link": "https://www3.nhk.or.jp/lnews/tokushima/20221128/8020016236.html",
        "lat": "34.074976695212236",
        "lon": "134.55566406491428",
        "area": "徳島市"
    },
    {
        "title": "サッカーワールドカップ 徳島でも日本代表を応援",
        "link": "https://www3.nhk.or.jp/lnews/tokushima/20221128/8020016234.html",
        "lat": "34.073481419112646",
        "lon": "134.56423214239013",
        "area": "徳島市"
    },
    {
        "title": "徳島県 新型コロナ ４人死亡 ３９６人感染（２７日）",
        "link": "https://www3.nhk.or.jp/lnews/tokushima/20221127/8020016232.html",
        "lat": "34.075985415593344",
        "lon": "134.557005998454",
        "area": "徳島市"
    },
    {
        "title": "四国電力値上げ申請 家計への影響を懸念する声",
        "link": "https://www3.nhk.or.jp/lnews/takamatsu/20221128/8030014579.html",
        "lat": "34.34806489973719",
        "lon": "134.05216404651068",
        "area": "香川県"
    },
    {
        "title": "年末年始も発熱患者などへの対応強化 医師会と調整 池田知事",
        "link": "https://www3.nhk.or.jp/lnews/takamatsu/20221128/8030014571.html",
        "lat": "34.34402878828619",
        "lon": "134.05244989245512",
        "area": "香川県"
    },
    {
        "title": "四国電力 2８％余値上げを申請 燃料価格の高騰で",
        "link": "https://www3.nhk.or.jp/lnews/takamatsu/20221128/8030014570.html",
        "lat": "34.34593280639098",
        "lon": "134.05068278462096",
        "area": "香川県"
    },
    {
        "title": "香川県 新型コロナ 新たに２７８人感染確認",
        "link": "https://www3.nhk.or.jp/lnews/takamatsu/20221128/8030014572.html",
        "lat": "34.34109490619564",
        "lon": "134.05134998903623",
        "area": "香川県"
    },
    {
        "title": "もっこく池で園児がニジマス放流体験 まんのう町",
        "link": "https://www3.nhk.or.jp/lnews/takamatsu/20221128/8030014575.html",
        "lat": "34.192334",
        "lon": "133.841393",
        "area": "まんのう町"
    },
    {
        "title": "カンボジアの職業訓練大学の講師が研修 丸亀市",
        "link": "https://www3.nhk.or.jp/lnews/takamatsu/20221128/8030014573.html",
        "lat": "34.289886",
        "lon": "133.798713",
        "area": "丸亀市"
    },
    {
        "title": "Ｗ杯コスタリカ戦 高松市内のスポーツバーでも声援送る",
        "link": "https://www3.nhk.or.jp/lnews/takamatsu/20221128/8030014569.html",
        "lat": "34.342791",
        "lon": "134.046574",
        "area": "高松市"
    },
    {
        "title": "四電電力　２８％余の値上げを国に申請　来年４月から",
        "link": "https://www3.nhk.or.jp/lnews/matsuyama/20221128/8000014599.html",
        "lat": "33.84787499881134",
        "lon": "132.7691447900236",
        "area": "愛媛県"
    },
    {
        "title": "Ｗ杯 豪雨被災地からも応援",
        "link": "https://www3.nhk.or.jp/lnews/matsuyama/20221128/8000014600.html",
        "lat": "33.22334",
        "lon": "132.560563",
        "area": "宇和島市"
    },
    {
        "title": "特別支援学校の生徒　プロ選手と交流",
        "link": "https://www3.nhk.or.jp/lnews/matsuyama/20221128/8000014601.html",
        "lat": "33.791027",
        "lon": "132.872299",
        "area": "東温市"
    },
    {
        "title": "あす大気の状態非常に不安定",
        "link": "https://www3.nhk.or.jp/lnews/matsuyama/20221128/8000014602.html",
        "lat": "33.84850808643909",
        "lon": "132.7687451466427",
        "area": "愛媛県"
    },
    {
        "title": "愛媛県　新型コロナ　３５６人感染確認（速報値）",
        "link": "https://www3.nhk.or.jp/lnews/matsuyama/20221128/8000014598.html",
        "lat": "33.8426618516399",
        "lon": "132.77378014230078",
        "area": "愛媛県"
    },
    {
        "title": "サッカーＷ杯コスタリカ戦　長友選手の恩師らも声援",
        "link": "https://www3.nhk.or.jp/lnews/matsuyama/20221128/8000014597.html",
        "lat": "33.960329",
        "lon": "133.283379",
        "area": "新居浜市"
    },
    {
        "title": "新型コロナ　７６２人感染確認　１人死亡",
        "link": "https://www3.nhk.or.jp/lnews/matsuyama/20221127/8000014595.html",
        "lat": "33.84627661308606",
        "lon": "132.77231595398436",
        "area": "愛媛県"
    },
    {
        "title": "四国電力 ２８％余値上げを申請 燃料価格の高騰で",
        "link": "https://www3.nhk.or.jp/lnews/kochi/20221128/8010016406.html",
        "lat": "33.5644105027759",
        "lon": "133.5403112783473",
        "area": "高知市"
    },
    {
        "title": "高校生が測量や重機の操作など土木の仕事を体験 四万十市",
        "link": "https://www3.nhk.or.jp/lnews/kochi/20221128/8010016414.html",
        "lat": "33.211606",
        "lon": "133.137037",
        "area": "四万十町"
    },
    {
        "title": "高知県 新型コロナ ２人死亡 １４５人感染確認",
        "link": "https://www3.nhk.or.jp/lnews/kochi/20221128/8010016408.html",
        "lat": "33.56065816638911",
        "lon": "133.53295481795473",
        "area": "高知市"
    },
    {
        "title": "高知市 生活困窮者へ食料品の寄付の募集を開始",
        "link": "https://www3.nhk.or.jp/lnews/kochi/20221128/8010016407.html",
        "lat": "33.56081854818271",
        "lon": "133.53999170994473",
        "area": "高知市"
    },
    {
        "title": "サッカーワールドカップ 高知のスポーツバーでファンが応援",
        "link": "https://www3.nhk.or.jp/lnews/kochi/20221128/8010016405.html",
        "lat": "33.56614263040936",
        "lon": "133.53141314494005",
        "area": "高知市"
    },
    {
        "title": "高知県地場産業大賞の審査会 地域発展につながる製品など表彰",
        "link": "https://www3.nhk.or.jp/lnews/kochi/20221128/8010016404.html",
        "lat": "33.563044417928666",
        "lon": "133.5390096569872",
        "area": "高知市"
    },
    {
        "title": "高知県 新型コロナ ３０５人感染 １人死亡（２７日）",
        "link": "https://www3.nhk.or.jp/lnews/kochi/20221127/8010016401.html",
        "lat": "33.56090994606865",
        "lon": "133.5315096805737",
        "area": "高知市"
    },
    {
        "title": "福岡県新型コロナ感染者１０２６人 ４日連続前週増 ６人死亡",
        "link": "https://www3.nhk.or.jp/lnews/fukuoka/20221128/5010018282.html",
        "lat": "33.59983961126331",
        "lon": "130.40530543857616",
        "area": "福岡市"
    },
    {
        "title": "糸島市　年末年始の飲酒運転防止などで特別警戒の出発式",
        "link": "https://www3.nhk.or.jp/lnews/fukuoka/20221128/5010018280.html",
        "lat": "33.55745",
        "lon": "130.1955",
        "area": "糸島市"
    },
    {
        "title": "北九州 旦過市場火災で全焼「小倉昭和館」が火災後初の上映会",
        "link": "https://www3.nhk.or.jp/lnews/fukuoka/20221128/5010018281.html",
        "lat": "33.883408",
        "lon": "130.875183",
        "area": "北九州市"
    },
    {
        "title": "筑前町のため池に国の特別天然記念物のコウノトリが飛来",
        "link": "https://www3.nhk.or.jp/lnews/fukuoka/20221128/5010018279.html",
        "lat": "33.457033",
        "lon": "130.595183",
        "area": "筑前町"
    },
    {
        "title": "コスタリカ戦　福岡でもパブリック・ビューイング　次戦勝利を",
        "link": "https://www3.nhk.or.jp/lnews/fukuoka/20221128/5010018277.html",
        "lat": "33.591505",
        "lon": "130.414781",
        "area": "博多区"
    },
    {
        "title": "【独自】暴力団組長の車放火事件　実行役が”液体”かけ放火か",
        "link": "https://www3.nhk.or.jp/lnews/fukuoka/20221127/5010018273.html",
        "lat": "33.728664",
        "lon": "130.469995",
        "area": "古賀市"
    },
    {
        "title": "宮若　「食べてうまい」九州産米のコンクール",
        "link": "https://www3.nhk.or.jp/lnews/fukuoka/20221127/5010018274.html",
        "lat": "33.723666",
        "lon": "130.667417",
        "area": "宮若市"
    },
    {
        "title": "６１１人コロナ感染 先週より１１０人増加 佐賀県（２７日）",
        "link": "https://www3.nhk.or.jp/lnews/saga/20221127/5080013292.html",
        "lat": "33.27203256189783",
        "lon": "130.3066109709759",
        "area": "佐賀市"
    },
    {
        "title": "佐賀に避難しているウクライナ人が有田町の窯元など見学",
        "link": "https://www3.nhk.or.jp/lnews/saga/20221128/5080013296.html",
        "lat": "33.210574",
        "lon": "129.849014",
        "area": "有田町"
    },
    {
        "title": "調停制度１００年にあわせ 佐賀地裁で模擬調停を公開",
        "link": "https://www3.nhk.or.jp/lnews/saga/20221128/5080013298.html",
        "lat": "33.27143176265124",
        "lon": "130.30372895242263",
        "area": "佐賀市"
    },
    {
        "title": "仕事の合間にみかんを ＪＡなどが県庁職員に県産みかんをＰＲ",
        "link": "https://www3.nhk.or.jp/lnews/saga/20221128/5080013297.html",
        "lat": "33.26737664955034",
        "lon": "130.30250393518173",
        "area": "佐賀市"
    },
    {
        "title": "佐賀バルーナーズ ５連勝",
        "link": "https://www3.nhk.or.jp/lnews/saga/20221127/5080013295.html",
        "lat": "33.321148",
        "lon": "130.398753",
        "area": "吉野ヶ里町"
    },
    {
        "title": "久光スプリングス 東レアローズに勝利 通算成績は８勝２敗",
        "link": "https://www3.nhk.or.jp/lnews/saga/20221127/5080013294.html",
        "lat": "33.264070692607255",
        "lon": "130.30872498255457",
        "area": "佐賀市"
    },
    {
        "title": "佐賀県内 新たな変異ウィルス「ＢＡ．２．７５」初確認",
        "link": "https://www3.nhk.or.jp/lnews/saga/20221125/5080013286.html",
        "lat": "33.265841858272644",
        "lon": "130.3066651725026",
        "area": "佐賀市"
    },
    {
        "title": "長崎県 新型コロナ２５４人感染確認（２８日）",
        "link": "https://www3.nhk.or.jp/lnews/nagasaki/20221128/5030016603.html",
        "lat": "32.75412543047538",
        "lon": "129.88376587957015",
        "area": "長崎市"
    },
    {
        "title": "お歳暮などで人気 高級珍味の「からすみ」作り 五島",
        "link": "https://www3.nhk.or.jp/lnews/nagasaki/20221128/5030016600.html",
        "lat": "32.695777",
        "lon": "128.84089",
        "area": "五島市"
    },
    {
        "title": "ユネスコ無形文化遺産に登録の見通し「対馬の盆踊」披露",
        "link": "https://www3.nhk.or.jp/lnews/nagasaki/20221128/5030016601.html",
        "lat": "34.202643",
        "lon": "129.287518",
        "area": "対馬市"
    },
    {
        "title": "洋上風力発電促進地域の五島市沖 発電施設を設置場所に移動",
        "link": "https://www3.nhk.or.jp/lnews/nagasaki/20221128/5030016604.html",
        "lat": "32.695777",
        "lon": "128.84089",
        "area": "五島市"
    },
    {
        "title": "Ｗ杯コスタリカ戦 森保監督の母校でサッカー部員ら声援送る",
        "link": "https://www3.nhk.or.jp/lnews/nagasaki/20221128/5030016597.html",
        "lat": "32.844208",
        "lon": "130.053601",
        "area": "諫早市"
    },
    {
        "title": "コスタリカに敗れた日本代表 長崎市ではスペイン戦に期待の声",
        "link": "https://www3.nhk.or.jp/lnews/nagasaki/20221128/5030016599.html",
        "lat": "32.752720870888865",
        "lon": "129.8821610609431",
        "area": "長崎市"
    },
    {
        "title": "大村市で食や自然楽しみながら街歩き 西九州新幹線の開業祝う",
        "link": "https://www3.nhk.or.jp/lnews/nagasaki/20221128/5030016598.html",
        "lat": "32.89996",
        "lon": "129.958217",
        "area": "大村市"
    },
    {
        "title": "熊本県 新型コロナ３９１人感染確認 ３人死亡（２８日）",
        "link": "https://www3.nhk.or.jp/lnews/kumamoto/20221128/5000017594.html",
        "lat": "32.81035159223067",
        "lon": "130.71771575512173",
        "area": "熊本市"
    },
    {
        "title": "豪雨被害の球磨村 住民どうしが被災体験を共有する語り場",
        "link": "https://www3.nhk.or.jp/lnews/kumamoto/20221128/5000017591.html",
        "lat": "32.252621",
        "lon": "130.651274",
        "area": "球磨村"
    },
    {
        "title": "天草市の冬の風物詩イルミネーション 大江天主堂一帯で点灯式",
        "link": "https://www3.nhk.or.jp/lnews/kumamoto/20221128/5000017592.html",
        "lat": "32.458621",
        "lon": "130.19301",
        "area": "天草市"
    },
    {
        "title": "熊本県内の景気 ７か月ぶりに判断引き上げ 日銀熊本支店",
        "link": "https://www3.nhk.or.jp/lnews/kumamoto/20221128/5000017593.html",
        "lat": "32.804880352383414",
        "lon": "130.70994443873101",
        "area": "熊本市"
    },
    {
        "title": "“猪木”魂を受け継ぐ",
        "link": "https://www3.nhk.or.jp/lnews/kumamoto/20221128/5000017590.html",
        "lat": "32.80981841054871",
        "lon": "130.71699574115735",
        "area": "熊本市"
    },
    {
        "title": "「宇土雨乞い大太鼓」保存会が結成３０年 宇土市で記念公演",
        "link": "https://www3.nhk.or.jp/lnews/kumamoto/20221127/5000017589.html",
        "lat": "32.687292",
        "lon": "130.658562",
        "area": "宇土市"
    },
    {
        "title": "ヤクルトがファン感謝イベント 村上宗隆選手がトークショー",
        "link": "https://www3.nhk.or.jp/lnews/kumamoto/20221127/5000017588.html",
        "lat": "32.80448638839431",
        "lon": "130.71535998047085",
        "area": "熊本市"
    },
    {
        "title": "不出馬を表明した広瀬知事「緊張感持って職務まっとうする」",
        "link": "https://www3.nhk.or.jp/lnews/oita/20221128/5070014395.html",
        "lat": "33.24625900635724",
        "lon": "131.61647033325863",
        "area": "大分市"
    },
    {
        "title": "新たに３９８人感染 前週比４日連続で増加 病床使用率３１％",
        "link": "https://www3.nhk.or.jp/lnews/oita/20221128/5070014398.html",
        "lat": "33.24041940387419",
        "lon": "131.6150025653085",
        "area": "大分市"
    },
    {
        "title": "新型コロナ 新規感染者内訳など詳報（２８日）",
        "link": "https://www3.nhk.or.jp/lnews/oita/20221128/5070014402.html",
        "lat": "33.249211044743895",
        "lon": "131.6162457671024",
        "area": "大分市"
    },
    {
        "title": "大分トリニータ 下平隆宏監督の来季の続投決める",
        "link": "https://www3.nhk.or.jp/lnews/oita/20221128/5070014401.html",
        "lat": "33.24216130560821",
        "lon": "131.61854921408235",
        "area": "大分市"
    },
    {
        "title": "聴覚に障害あるウクライナ男性 自立目指し別府市で働き始める",
        "link": "https://www3.nhk.or.jp/lnews/oita/20221128/5070014394.html",
        "lat": "33.284642",
        "lon": "131.491328",
        "area": "別府市"
    },
    {
        "title": "臼杵市の国宝の磨崖仏 石仏の修復作業を一般公開",
        "link": "https://www3.nhk.or.jp/lnews/oita/20221128/5070014393.html",
        "lat": "33.125948",
        "lon": "131.804638",
        "area": "臼杵市"
    },
    {
        "title": "うそのメール信じ１６００万円だまし取られる 別府市",
        "link": "https://www3.nhk.or.jp/lnews/oita/20221127/5070014391.html",
        "lat": "33.284642",
        "lon": "131.491328",
        "area": "別府市"
    },
    {
        "title": "赤字の串間市民病院が経営健全化計画案 問われる実現可能性",
        "link": "https://www3.nhk.or.jp/lnews/miyazaki/20221128/5060014214.html",
        "lat": "31.464539",
        "lon": "131.228306",
        "area": "串間市"
    },
    {
        "title": "旧土呂久鉱山跡地を地域の憩いの場に 大学生たちが植樹",
        "link": "https://www3.nhk.or.jp/lnews/miyazaki/20221128/5060014215.html",
        "lat": "32.711651",
        "lon": "131.307871",
        "area": "高千穂町"
    },
    {
        "title": "４０４人コロナ感染 先週より２７人増加  宮崎県（２７日）",
        "link": "https://www3.nhk.or.jp/lnews/miyazaki/20221127/5060014211.html",
        "lat": "31.912704052244045",
        "lon": "131.42651146535636",
        "area": "宮崎市"
    },
    {
        "title": "「カツオはなぜ一本釣り」日南市でチコちゃんのステージショー",
        "link": "https://www3.nhk.or.jp/lnews/miyazaki/20221127/5060014209.html",
        "lat": "31.601932",
        "lon": "131.378731",
        "area": "日南市"
    },
    {
        "title": "大相撲九州場所千秋楽 宮崎県出身力士の結果",
        "link": "https://www3.nhk.or.jp/lnews/miyazaki/20221127/5060014213.html",
        "lat": "32.582401",
        "lon": "131.664859",
        "area": "延岡市"
    },
    {
        "title": "小林市で「ｅスポーツ」の大会",
        "link": "https://www3.nhk.or.jp/lnews/miyazaki/20221127/5060014210.html",
        "lat": "31.996657",
        "lon": "130.972674",
        "area": "小林市"
    },
    {
        "title": "１１１回目の命日 明治の外交官・小村寿太郎の墓前祭 日南市",
        "link": "https://www3.nhk.or.jp/lnews/miyazaki/20221126/5060014207.html",
        "lat": "31.601932",
        "lon": "131.378731",
        "area": "日南市"
    },
    {
        "title": "鹿児島県 新型コロナ２７８人感染確認（２８日）",
        "link": "https://www3.nhk.or.jp/lnews/kagoshima/20221128/5050021253.html",
        "lat": "31.600509944545472",
        "lon": "130.56603564280923",
        "area": "鹿児島市"
    },
    {
        "title": "奄美市の８７歳女性殺害などの罪 男性に無罪判決 鹿児島地裁",
        "link": "https://www3.nhk.or.jp/lnews/kagoshima/20221128/5050021252.html",
        "lat": "28.377273",
        "lon": "129.49378",
        "area": "奄美市"
    },
    {
        "title": "鹿児島市に県内初の外資系ホテル開業へ 館内イメージ図を発表",
        "link": "https://www3.nhk.or.jp/lnews/kagoshima/20221128/5050021254.html",
        "lat": "31.59889051696018",
        "lon": "130.55894682128334",
        "area": "鹿児島市"
    },
    {
        "title": "８月に亡くなった京セラの稲盛和夫氏 京都市でお別れの会",
        "link": "https://www3.nhk.or.jp/lnews/kagoshima/20221128/5050021251.html",
        "lat": "31.60492137875543",
        "lon": "130.56276345088938",
        "area": "鹿児島市"
    },
    {
        "title": "コスタリカ戦 パブリックビューイングでも応援 鹿児島",
        "link": "https://www3.nhk.or.jp/lnews/kagoshima/20221128/5050021250.html",
        "lat": "31.605277005160104",
        "lon": "130.55772908129802",
        "area": "鹿児島市"
    },
    {
        "title": "国宝に指定の霧島神宮 初詣客の受け入れに向け準備進む",
        "link": "https://www3.nhk.or.jp/lnews/kagoshima/20221128/5050021249.html",
        "lat": "31.741015",
        "lon": "130.763136",
        "area": "霧島市"
    },
    {
        "title": "鹿児島県内の火山に関する情報（１１／２８）",
        "link": "https://www3.nhk.or.jp/lnews/kagoshima/20221128/5050021255.html",
        "lat": "31.59881303112829",
        "lon": "130.56609266799927",
        "area": "鹿児島市"
    },
    {
        "title": "知念市長 就任初の所信表明「スピード感もって取り組む」",
        "link": "https://www3.nhk.or.jp/lnews/okinawa/20221128/5090021000.html",
        "lat": "26.212295",
        "lon": "127.679218",
        "area": "那覇市"
    },
    {
        "title": "新型コロナ 新たに１８８人感染 先週月曜比３２人増",
        "link": "https://www3.nhk.or.jp/lnews/okinawa/20221128/5090021004.html",
        "lat": "26.34401350804761",
        "lon": "127.8140875844881",
        "area": "沖縄市"
    },
    {
        "title": "沖縄海邦銀行が女性行員の制服廃止 パンツスタイルなどで業務",
        "link": "https://www3.nhk.or.jp/lnews/okinawa/20221128/5090021001.html",
        "lat": "26.212295",
        "lon": "127.679218",
        "area": "那覇市"
    },
    {
        "title": "米海兵隊と海軍が統合部隊を試験運用 中国の海洋進出念頭か",
        "link": "https://www3.nhk.or.jp/lnews/okinawa/20221128/5090020995.html",
        "lat": "26.343617384165178",
        "lon": "127.81088203320813",
        "area": "沖縄市"
    },
    {
        "title": "本土復帰前後の沖縄や離島の人々記録した平良孝七の写真展",
        "link": "https://www3.nhk.or.jp/lnews/okinawa/20221128/5090020931.html",
        "lat": "26.212295",
        "lon": "127.679218",
        "area": "那覇市"
    },
    {
        "title": "国民文化祭と全国障害者芸術・文化祭が閉会式 那覇市",
        "link": "https://www3.nhk.or.jp/lnews/okinawa/20221127/5090020999.html",
        "lat": "26.212295",
        "lon": "127.679218",
        "area": "那覇市"
    },
    {
        "title": "石垣市でお魚まつり せりの体験会や海人飯のコーナー",
        "link": "https://www3.nhk.or.jp/lnews/okinawa/20221127/5090020997.html",
        "lat": "24.344419",
        "lon": "124.185246",
        "area": "石垣市"
    }
]